[{
	"id": "3177",
	"name": "Первый БИТ",
	"lat": 56.32530509672845,
	"lng": 44.015248365745315,
	"url": "https://api.hh.ru/employers/3177",
	"logo": {
		"90": "https://hhcdn.ru/employer-logo/1082138.jpeg",
		"240": "https://hhcdn.ru/employer-logo/1082139.jpeg",
		"original": "https://hhcdn.ru/employer-logo-original/232094.jpg"
	}
}, {
	"id": "3239",
	"name": "Competentum",
	"lat": 55.922444,
	"lng": 37.514158,
	"url": "https://api.hh.ru/employers/3239",
	"logo": {
		"90": "https://hhcdn.ru/employer-logo/1806722.png",
		"240": "https://hhcdn.ru/employer-logo/1806723.png",
		"original": "https://hhcdn.ru/employer-logo-original/341114.png"
	}
}, {
	"id": "3945",
	"name": "Netcracker Technology Corp.",
	"lat": 56.293777,
	"lng": 43.980115,
	"url": "https://api.hh.ru/employers/3945",
	"logo": {
		"90": "https://hhcdn.ru/employer-logo/1695110.png",
		"240": "https://hhcdn.ru/employer-logo/1695111.png",
		"original": "https://hhcdn.ru/employer-logo-original/313186.png"
	}
}, {
	"id": "17266",
	"name": "Теком",
	"lat": 56.320602,
	"lng": 44.036754,
	"url": "https://api.hh.ru/employers/17266",
	"logo": {
		"90": "https://hhcdn.ru/employer-logo/313144.png",
		"240": "https://hhcdn.ru/employer-logo/386001.png",
		"original": "https://hhcdn.ru/employer-logo-original/228480.gif"
	}
}, {
	"id": "26624",
	"name": "Positive Technologies",
	"lat": 56.308285,
	"lng": 44.002995,
	"url": "https://api.hh.ru/employers/26624",
	"logo": {
		"90": "https://hhcdn.ru/employer-logo/494452.png",
		"240": "https://hhcdn.ru/employer-logo/494453.png",
		"original": "https://hhcdn.ru/employer-logo-original/226490.bmp"
	}
}, {
	"id": "42080",
	"name": "Такском",
	"lat": 56.327521,
	"lng": 44.016443,
	"url": "https://api.hh.ru/employers/42080",
	"logo": {
		"90": "https://hhcdn.ru/employer-logo/696362.jpeg",
		"240": "https://hhcdn.ru/employer-logo/696363.jpeg",
		"original": "https://hhcdn.ru/employer-logo-original/223208.jpg"
	}
}, {
	"id": "71370",
	"name": "Апрель Софт",
	"lat": 56.325719,
	"lng": 44.010523,
	"url": "https://api.hh.ru/employers/71370",
	"logo": {
		"90": "https://hhcdn.ru/employer-logo/648623.jpeg",
		"240": "https://hhcdn.ru/employer-logo/648624.jpeg",
		"original": "https://hhcdn.ru/employer-logo-original/215919.JPG"
	}
}, {
	"id": "80284",
	"name": "Р52.РУ",
	"lat": 56.323188,
	"lng": 43.952932,
	"url": "https://api.hh.ru/employers/80284",
	"logo": {
		"90": "https://hhcdn.ru/employer-logo/1517138.jpeg",
		"240": "https://hhcdn.ru/employer-logo/1517139.jpeg",
		"original": "https://hhcdn.ru/employer-logo-original/268652.jpg"
	}
}, {
	"id": "81599",
	"name": "Five9, Inc., СА",
	"lat": 56.281301,
	"lng": 43.996042,
	"url": "https://api.hh.ru/employers/81599",
	"logo": {
		"90": "https://hhcdn.ru/employer-logo/964910.jpeg",
		"240": "https://hhcdn.ru/employer-logo/964911.jpeg",
		"original": "https://hhcdn.ru/employer-logo-original/213803.jpg"
	}
}, {
	"id": "87858",
	"name": "Агентство Правовой Информации",
	"lat": 56.330146,
	"lng": 43.994066,
	"url": "https://api.hh.ru/employers/87858",
	"logo": {
		"90": "https://hhcdn.ru/employer-logo/1703102.jpeg",
		"240": "https://hhcdn.ru/employer-logo/1703103.jpeg",
		"original": "https://hhcdn.ru/employer-logo-original/315184.jpg"
	}
}, {
	"id": "138191",
	"name": "Константа",
	"lat": 56.283505,
	"lng": 44.080609,
	"url": "https://api.hh.ru/employers/138191",
	"logo": {
		"90": "https://hhcdn.ru/employer-logo/1616106.jpeg",
		"240": "https://hhcdn.ru/employer-logo/1616107.jpeg",
		"original": "https://hhcdn.ru/employer-logo-original/293429.jpg"
	}
}, {
	"id": "163189",
	"name": "AFT design, Студия",
	"lat": 56.311606,
	"lng": 43.98899,
	"url": "https://api.hh.ru/employers/163189",
	"logo": {
		"90": "https://hhcdn.ru/employer-logo/512357.png",
		"240": "https://hhcdn.ru/employer-logo/512358.png",
		"original": "https://hhcdn.ru/employer-logo-original/198368.png"
	}
}, {
	"id": "164517",
	"name": "Metrika",
	"lat": 56.320592,
	"lng": 44.032657,
	"url": "https://api.hh.ru/employers/164517",
	"logo": {
		"90": "https://hhcdn.ru/employer-logo/736769.png",
		"240": "https://hhcdn.ru/employer-logo/736770.png",
		"original": "https://hhcdn.ru/employer-logo-original/198167.png"
	}
}, {
	"id": "193245",
	"name": "INTECH",
	"lat": 56.311956,
	"lng": 43.990589,
	"url": "https://api.hh.ru/employers/193245",
	"logo": {
		"90": "https://hhcdn.ru/employer-logo/1425577.png",
		"240": "https://hhcdn.ru/employer-logo/1425578.png",
		"original": "https://hhcdn.ru/employer-logo-original/245726.png"
	}
}, {
	"id": "446943",
	"name": "Транссеть",
	"lat": 56.31561,
	"lng": 43.947066,
	"url": "https://api.hh.ru/employers/446943",
	"logo": {
		"90": "https://hhcdn.ru/employer-logo/1046408.png",
		"240": "https://hhcdn.ru/employer-logo/1046409.png",
		"original": "https://hhcdn.ru/employer-logo-original/181958.png"
	}
}, {
	"id": "546180",
	"name": "OS33",
	"lat": 56.324241,
	"lng": 44.017323,
	"url": "https://api.hh.ru/employers/546180",
	"logo": {
		"90": "https://hhcdn.ru/employer-logo/1775078.png",
		"240": "https://hhcdn.ru/employer-logo/1775079.png",
		"original": "https://hhcdn.ru/employer-logo-original/333182.png"
	}
}, {
	"id": "574804",
	"name": "Датавижн НН",
	"lat": 56.29496,
	"lng": 43.975201,
	"url": "https://api.hh.ru/employers/574804",
	"logo": {
		"90": "https://hhcdn.ru/employer-logo/1771070.jpeg",
		"240": "https://hhcdn.ru/employer-logo/1771071.jpeg",
		"original": "https://hhcdn.ru/employer-logo-original/332180.jpg"
	}
}, {
	"id": "642985",
	"name": "Freemake",
	"lat": 56.315246,
	"lng": 44.005088,
	"url": "https://api.hh.ru/employers/642985",
	"logo": {
		"90": "https://hhcdn.ru/employer-logo/635897.png",
		"240": "https://hhcdn.ru/employer-logo/635898.png",
		"original": "https://hhcdn.ru/employer-logo-original/159268.png"
	}
}, {
	"id": "699379",
	"name": "ЦЕНТР",
	"lat": 56.311606,
	"lng": 43.98899,
	"url": "https://api.hh.ru/employers/699379",
	"logo": {
		"90": "https://hhcdn.ru/employer-logo/480790.png",
		"240": "https://hhcdn.ru/employer-logo/480791.png",
		"original": "https://hhcdn.ru/employer-logo-original/150094.gif"
	}
}, {
	"id": "735444",
	"name": "Game Insight",
	"lat": 56.297103,
	"lng": 43.946805,
	"url": "https://api.hh.ru/employers/735444",
	"logo": {
		"90": "https://hhcdn.ru/employer-logo/1745642.png",
		"240": "https://hhcdn.ru/employer-logo/1745643.png",
		"original": "https://hhcdn.ru/employer-logo-original/325822.png"
	}
}, {
	"id": "844534",
	"name": "РеМо",
	"lat": 56.313573,
	"lng": 43.975749,
	"url": "https://api.hh.ru/employers/844534",
	"logo": {
		"90": "https://hhcdn.ru/employer-logo/998435.png",
		"240": "https://hhcdn.ru/employer-logo/998436.png",
		"original": "https://hhcdn.ru/employer-logo-original/129182.png"
	}
}, {
	"id": "847921",
	"name": "Ньюс Медиа Диджитал",
	"lat": 56.310108,
	"lng": 43.996482,
	"url": "https://api.hh.ru/employers/847921",
	"logo": {
		"90": "https://hhcdn.ru/employer-logo/1050737.jpeg",
		"240": "https://hhcdn.ru/employer-logo/1050738.jpeg",
		"original": "https://hhcdn.ru/employer-logo-original/128648.jpg"
	}
}, {
	"id": "870069",
	"name": "Ассоциация Электронных Торговых Площадок",
	"lat": 56.317937,
	"lng": 44.060469,
	"url": "https://api.hh.ru/employers/870069",
	"logo": {
		"90": "https://hhcdn.ru/employer-logo/581570.png",
		"240": "https://hhcdn.ru/employer-logo/581571.png",
		"original": "https://hhcdn.ru/employer-logo-original/125060.png"
	}
}, {
	"id": "894522",
	"name": "Ф-Технологии",
	"lat": 56.311281,
	"lng": 44.030241,
	"url": "https://api.hh.ru/employers/894522",
	"logo": {
		"90": "https://hhcdn.ru/employer-logo/934322.jpeg",
		"240": "https://hhcdn.ru/employer-logo/934323.jpeg",
		"original": "https://hhcdn.ru/employer-logo-original/121370.jpg"
	}
}, {
	"id": "923115",
	"name": "Левина Е.К., (Leaderseo)",
	"lat": 56.306977,
	"lng": 44.081939,
	"url": "https://api.hh.ru/employers/923115",
	"logo": {
		"90": "https://hhcdn.ru/employer-logo/1746550.jpeg",
		"240": "https://hhcdn.ru/employer-logo/1746551.jpeg",
		"original": "https://hhcdn.ru/employer-logo-original/326049.jpeg"
	}
}, {
	"id": "990123",
	"name": "Радарио",
	"lat": 59.947464,
	"lng": 30.272399,
	"url": "https://api.hh.ru/employers/990123",
	"logo": {
		"90": "https://hhcdn.ru/employer-logo/1083710.png",
		"240": "https://hhcdn.ru/employer-logo/1083711.png",
		"original": "https://hhcdn.ru/employer-logo-original/99151.png"
	}
}, {
	"id": "1080908",
	"name": "Единая система бронирования",
	"lat": 56.285693,
	"lng": 43.98599,
	"url": "https://api.hh.ru/employers/1080908",
	"logo": {
		"90": "https://hhcdn.ru/employer-logo/958613.jpeg",
		"240": "https://hhcdn.ru/employer-logo/958614.jpeg",
		"original": "https://hhcdn.ru/employer-logo-original/81156.jpg"
	}
}, {
	"id": "1095210",
	"name": "БСС",
	"lat": 56.320518,
	"lng": 44.011089,
	"url": "https://api.hh.ru/employers/1095210",
	"logo": {}
}, {
	"id": "1171877",
	"name": "ГЛОБУС",
	"lat": 56.328738,
	"lng": 43.98652,
	"url": "https://api.hh.ru/employers/1171877",
	"logo": {
		"90": "https://hhcdn.ru/employer-logo/1418753.png",
		"240": "https://hhcdn.ru/employer-logo/1418754.png",
		"original": "https://hhcdn.ru/employer-logo-original/244019.png"
	}
}, {
	"id": "1334941",
	"name": "Таймбук",
	"lat": 56.303516,
	"lng": 43.991128,
	"url": "https://api.hh.ru/employers/1334941",
	"logo": {
		"90": "https://hhcdn.ru/employer-logo/1067522.png",
		"240": "https://hhcdn.ru/employer-logo/1067523.png",
		"original": "https://hhcdn.ru/employer-logo-original/40292.png"
	}
}, {
	"id": "1444524",
	"name": "СОФТ.РУ",
	"lat": 56.313234,
	"lng": 43.978785,
	"url": "https://api.hh.ru/employers/1444524",
	"logo": {
		"90": "https://hhcdn.ru/employer-logo/998249.jpeg",
		"240": "https://hhcdn.ru/employer-logo/998250.jpeg",
		"original": "https://hhcdn.ru/employer-logo-original/25854.jpg"
	}
}, {
	"id": "1521497",
	"name": "Oxtron",
	"lat": 56.328763,
	"lng": 44.016461,
	"url": "https://api.hh.ru/employers/1521497",
	"logo": {
		"90": "https://hhcdn.ru/employer-logo/1054208.jpeg",
		"240": "https://hhcdn.ru/employer-logo/1054209.jpeg",
		"original": "https://hhcdn.ru/employer-logo-original/14854.jpg"
	}
}, {
	"id": "1556060",
	"name": "Сенсерикс",
	"lat": 56.281421,
	"lng": 43.99562,
	"url": "https://api.hh.ru/employers/1556060",
	"logo": {
		"90": "https://hhcdn.ru/employer-logo/1383029.png",
		"240": "https://hhcdn.ru/employer-logo/1383030.png",
		"original": "https://hhcdn.ru/employer-logo-original/235088.png"
	}
}, {
	"id": "1605783",
	"name": "Ордбай",
	"lat": 56.323972,
	"lng": 43.952977,
	"url": "https://api.hh.ru/employers/1605783",
	"logo": {
		"90": "https://hhcdn.ru/employer-logo/1737430.png",
		"240": "https://hhcdn.ru/employer-logo/1737431.png",
		"original": "https://hhcdn.ru/employer-logo-original/323769.png"
	}
}, {
	"id": "1621562",
	"name": "КАДЭКС",
	"lat": 56.326887,
	"lng": 44.005986,
	"url": "https://api.hh.ru/employers/1621562",
	"logo": {
		"90": "https://hhcdn.ru/employer-logo/1818570.png",
		"240": "https://hhcdn.ru/employer-logo/1818571.png",
		"original": "https://hhcdn.ru/employer-logo-original/344076.png"
	}
}, {
	"id": "1646228",
	"name": "Инсайт",
	"lat": 56.305129,
	"lng": 44.020207,
	"url": "https://api.hh.ru/employers/1646228",
	"logo": {
		"90": "https://hhcdn.ru/employer-logo/1257001.jpeg",
		"240": "https://hhcdn.ru/employer-logo/1257002.jpeg",
		"original": "https://hhcdn.ru/employer-logo-original/118653.jpg"
	}
}, {
	"id": "1718864",
	"name": "Нефабрика",
	"lat": 56.267162,
	"lng": 44.023531,
	"url": "https://api.hh.ru/employers/1718864",
	"logo": {
		"90": "https://hhcdn.ru/employer-logo/1413757.png",
		"240": "https://hhcdn.ru/employer-logo/1413758.png",
		"original": "https://hhcdn.ru/employer-logo-original/242770.png"
	}
}, {
	"id": "1749926",
	"name": "RGK Group",
	"lat": 56.132454,
	"lng": 47.250351,
	"url": "https://api.hh.ru/employers/1749926",
	"logo": {
		"90": "https://hhcdn.ru/employer-logo/1498186.png",
		"240": "https://hhcdn.ru/employer-logo/1498187.png",
		"original": "https://hhcdn.ru/employer-logo-original/263914.png"
	}
}, {
	"id": "1788990",
	"name": "V5 Systems",
	"lat": 56.309858,
	"lng": 43.99306,
	"url": "https://api.hh.ru/employers/1788990",
	"logo": {
		"90": "https://hhcdn.ru/employer-logo/1464790.jpeg",
		"240": "https://hhcdn.ru/employer-logo/1464791.jpeg",
		"original": "https://hhcdn.ru/employer-logo-original/255565.jpeg"
	}
}, {
	"id": "1856230",
	"name": "Аквантия Рус",
	"lat": 56.282485,
	"lng": 43.995458,
	"url": "https://api.hh.ru/employers/1856230",
	"logo": {
		"90": "https://hhcdn.ru/employer-logo/1574926.jpeg",
		"240": "https://hhcdn.ru/employer-logo/1574927.jpeg",
		"original": "https://hhcdn.ru/employer-logo-original/283132.jpg"
	}
}, {
	"id": "1874062",
	"name": "Группа компаний KIT",
	"lat": 56.2827,
	"lng": 44.080331,
	"url": "https://api.hh.ru/employers/1874062",
	"logo": {
		"90": "https://hhcdn.ru/employer-logo/1522802.jpeg",
		"240": "https://hhcdn.ru/employer-logo/1522803.jpeg",
		"original": "https://hhcdn.ru/employer-logo-original/270068.jpg"
	}
}, {
	"id": "2036138",
	"name": "Джаст",
	"lat": 51.674187,
	"lng": 39.184746,
	"url": "https://api.hh.ru/employers/2036138",
	"logo": {
		"90": "https://hhcdn.ru/employer-logo/1771102.jpeg",
		"240": "https://hhcdn.ru/employer-logo/1771103.jpeg",
		"original": "https://hhcdn.ru/employer-logo-original/332188.jpg"
	}
}, {
	"id": "2056583",
	"name": "ЕвроСервис",
	"lat": 56.318276,
	"lng": 43.920081,
	"url": "https://api.hh.ru/employers/2056583",
	"logo": {
		"90": "https://hhcdn.ru/employer-logo/1787902.png",
		"240": "https://hhcdn.ru/employer-logo/1787903.png",
		"original": "https://hhcdn.ru/employer-logo-original/336409.png"
	}
}, {
	"id": "2117135",
	"name": "ЭрТоп Диджитал",
	"lat": 56.319834,
	"lng": 44.001576,
	"url": "https://api.hh.ru/employers/2117135",
	"logo": {
		"90": "https://hhcdn.ru/employer-logo/1693870.png",
		"240": "https://hhcdn.ru/employer-logo/1693871.png",
		"original": "https://hhcdn.ru/employer-logo-original/312876.png"
	}
}, {
	"id": "2336426",
	"name": "OneFactor",
	"lat": 56.282485,
	"lng": 43.995458,
	"url": "https://api.hh.ru/employers/2336426",
	"logo": {}
}, {
	"id": "2416658",
	"name": "Телепорт плюс",
	"lat": 56.324616,
	"lng": 44.010119,
	"url": "https://api.hh.ru/employers/2416658",
	"logo": {
		"90": "https://hhcdn.ru/employer-logo/1800486.png",
		"240": "https://hhcdn.ru/employer-logo/1800487.png",
		"original": "https://hhcdn.ru/employer-logo-original/339555.png"
	}
}]